{"type":"FeatureCollection","name":"cq-p","crs":{"type":"name","properties":{"name":"urn:ogc:def:crs:OGC:1.3:CRS84"}},"features":[{"type":"Feature","properties":{"code":"500120","name":"璧山区","value":58},"geometry":{"type":"Point","coordinates":[106.191877,29.561016]}},{"type":"Feature","properties":{"code":"500111","name":"大足区","value":53},"geometry":{"type":"Point","coordinates":[105.742715,29.649854]}},{"type":"Feature","properties":{"code":"500115","name":"长寿区","value":7},"geometry":{"type":"Point","coordinates":[107.139974,29.954485]}},{"type":"Feature","properties":{"code":"500117","name":"合川区","value":8},"geometry":{"type":"Point","coordinates":[106.311558,30.112294]}},{"type":"Feature","properties":{"code":"500152","name":"潼南区","value":17},"geometry":{"type":"Point","coordinates":[105.814476,30.143031]}},{"type":"Feature","properties":{"code":"500151","name":"铜梁区","value":77},"geometry":{"type":"Point","coordinates":[106.033221,29.810827]}},{"type":"Feature","properties":{"code":"500107","name":"九龙坡区","value":67},"geometry":{"type":"Point","coordinates":[106.364257,29.428362]}},{"type":"Feature","properties":{"code":"500103","name":"渝中区","value":5},"geometry":{"type":"Point","coordinates":[106.540385,29.549304]}},{"type":"Feature","properties":{"code":"500118","name":"永川区","value":96},"geometry":{"type":"Point","coordinates":[105.872805,29.289882]}},{"type":"Feature","properties":{"code":"500156","name":"武隆区","value":24},"geometry":{"type":"Point","coordinates":[107.709596,29.372907]}},{"type":"Feature","properties":{"code":"500153","name":"荣昌区","value":93},"geometry":{"type":"Point","coordinates":[105.506777,29.464665]}},{"type":"Feature","properties":{"code":"500119","name":"南川区","value":45},"geometry":{"type":"Point","coordinates":[107.171508,29.135087]}},{"type":"Feature","properties":{"code":"500104","name":"大渡口区","value":32},"geometry":{"type":"Point","coordinates":[106.458721,29.418032]}},{"type":"Feature","properties":{"code":"500101","name":"万州区","value":36},"geometry":{"type":"Point","coordinates":[108.406871,30.70381]}},{"type":"Feature","properties":{"code":"500102","name":"涪陵区","value":62},"geometry":{"type":"Point","coordinates":[107.333931,29.658303]}},{"type":"Feature","properties":{"code":"500110","name":"綦江区","value":38},"geometry":{"type":"Point","coordinates":[106.722693,28.878255]}},{"type":"Feature","properties":{"code":"500154","name":"开州区","value":39},"geometry":{"type":"Point","coordinates":[108.382324,31.270261]}},{"type":"Feature","properties":{"code":"500155","name":"梁平区","value":32},"geometry":{"type":"Point","coordinates":[107.719242,30.658194]}},{"type":"Feature","properties":{"code":"500114","name":"黔江区","value":42},"geometry":{"type":"Point","coordinates":[108.708658,29.434984]}},{"type":"Feature","properties":{"code":"500108","name":"南岸区","value":49},"geometry":{"type":"Point","coordinates":[106.660608,29.535502]}},{"type":"Feature","properties":{"code":"500116","name":"江津区","value":34},"geometry":{"type":"Point","coordinates":[106.263279,29.029033]}},{"type":"Feature","properties":{"code":"500113","name":"巴南区","value":46},"geometry":{"type":"Point","coordinates":[106.751659,29.371579]}},{"type":"Feature","properties":{"code":"500106","name":"沙坪坝区","value":84},"geometry":{"type":"Point","coordinates":[106.368215,29.624447]}},{"type":"Feature","properties":{"code":"500109","name":"北碚区","value":1},"geometry":{"type":"Point","coordinates":[106.513996,29.860492]}},{"type":"Feature","properties":{"code":"500112","name":"渝北区","value":46},"geometry":{"type":"Point","coordinates":[106.747314,29.81009]}},{"type":"Feature","properties":{"code":"500105","name":"江北区","value":87},"geometry":{"type":"Point","coordinates":[106.707029,29.613277]}},{"type":"Feature","properties":{"code":"500229","name":"城口县","value":53},"geometry":{"type":"Point","coordinates":[108.735255,31.881572]}},{"type":"Feature","properties":{"code":"500238","name":"巫溪县","value":80},"geometry":{"type":"Point","coordinates":[109.353402,31.502911]}},{"type":"Feature","properties":{"code":"500236","name":"奉节县","value":84},"geometry":{"type":"Point","coordinates":[109.349356,30.951038]}},{"type":"Feature","properties":{"code":"500230","name":"丰都县","value":45},"geometry":{"type":"Point","coordinates":[107.831009,29.884356]}},{"type":"Feature","properties":{"code":"500243","name":"彭水苗族土家族自治县","value":63},"geometry":{"type":"Point","coordinates":[108.266207,29.353398]}},{"type":"Feature","properties":{"code":"500235","name":"云阳县","value":26},"geometry":{"type":"Point","coordinates":[108.856956,31.035801]}},{"type":"Feature","properties":{"code":"500241","name":"秀山土家族苗族自治县","value":41},"geometry":{"type":"Point","coordinates":[109.018003,28.491334]}},{"type":"Feature","properties":{"code":"500231","name":"垫江县","value":81},"geometry":{"type":"Point","coordinates":[107.437769,30.25302]}},{"type":"Feature","properties":{"code":"500237","name":"巫山县","value":20},"geometry":{"type":"Point","coordinates":[109.901279,31.114768]}},{"type":"Feature","properties":{"code":"500233","name":"忠县","value":99},"geometry":{"type":"Point","coordinates":[107.914758,30.335496]}},{"type":"Feature","properties":{"code":"500242","name":"酉阳土家族苗族自治县","value":61},"geometry":{"type":"Point","coordinates":[108.800098,28.899258]}},{"type":"Feature","properties":{"code":"500240","name":"石柱土家族自治县","value":53},"geometry":{"type":"Point","coordinates":[108.29845,30.093155]}}]}